{
"type": "FeatureCollection",
"crs": { "type": "name", "properties": { "name": "urn:ogc:def:crs:OGC:1.3:CRS84" } },
"features": [
{ "type": "Feature", "properties": { "osm_id": "66347850", "code": 3300, "fclass": "muslim", "name": "Jamia Masjid Ashrafia" }, "geometry": { "type": "Point", "coordinates": [ 73.0410596, 33.7099436 ] } },
{ "type": "Feature", "properties": { "osm_id": "248790376", "code": 3301, "fclass": "muslim_sunni", "name": "Jamia Bahar-e-Madina" }, "geometry": { "type": "Point", "coordinates": [ 73.0245616, 33.6782019 ] } },
{ "type": "Feature", "properties": { "osm_id": "256052672", "code": 3301, "fclass": "muslim_sunni", "name": "Jama Masjid-e-Murtaza" }, "geometry": { "type": "Point", "coordinates": [ 73.0681513, 33.699839 ] } },
{ "type": "Feature", "properties": { "osm_id": "257414713", "code": 3100, "fclass": "christian", "name": "Fatima Church" }, "geometry": { "type": "Point", "coordinates": [ 73.0585909, 33.7087842 ] } },
{ "type": "Feature", "properties": { "osm_id": "275769171", "code": 3301, "fclass": "muslim_sunni", "name": "Lal Masjid" }, "geometry": { "type": "Point", "coordinates": [ 73.0870626, 33.7128244 ] } },
{ "type": "Feature", "properties": { "osm_id": "297645551", "code": 3301, "fclass": "muslim_sunni", "name": "مسجد" }, "geometry": { "type": "Point", "coordinates": [ 73.0770198, 33.6674358 ] } },
{ "type": "Feature", "properties": { "osm_id": "914566948", "code": 3300, "fclass": "muslim", "name": "Zakaria Mosque" }, "geometry": { "type": "Point", "coordinates": [ 73.023467, 33.619529 ] } },
{ "type": "Feature", "properties": { "osm_id": "920663715", "code": 3300, "fclass": "muslim", "name": "Nomania Mosque" }, "geometry": { "type": "Point", "coordinates": [ 73.0308448, 33.6169865 ] } },
{ "type": "Feature", "properties": { "osm_id": "1070214635", "code": 3300, "fclass": "muslim", "name": "Jamia Masjid" }, "geometry": { "type": "Point", "coordinates": [ 73.0942173, 33.5815722 ] } },
{ "type": "Feature", "properties": { "osm_id": "1336412280", "code": 3300, "fclass": "muslim", "name": "Jamia Mosque Ahle Hadees" }, "geometry": { "type": "Point", "coordinates": [ 73.0537438, 33.600819 ] } },
{ "type": "Feature", "properties": { "osm_id": "1336412281", "code": 3300, "fclass": "muslim", "name": "Jamia Mosque Hanfia" }, "geometry": { "type": "Point", "coordinates": [ 73.0518984, 33.5997198 ] } },
{ "type": "Feature", "properties": { "osm_id": "1336464153", "code": 3300, "fclass": "muslim", "name": "Masjid-e-Qubah" }, "geometry": { "type": "Point", "coordinates": [ 73.0422319, 33.6867182 ] } },
{ "type": "Feature", "properties": { "osm_id": "1336725436", "code": 3300, "fclass": "muslim", "name": "Masjid Syedna Hasan" }, "geometry": { "type": "Point", "coordinates": [ 73.0387881, 33.6848433 ] } },
{ "type": "Feature", "properties": { "osm_id": "1340818209", "code": 3300, "fclass": "muslim", "name": "Taqwa Masjid‎" }, "geometry": { "type": "Point", "coordinates": [ 73.0394691, 33.6889667 ] } },
{ "type": "Feature", "properties": { "osm_id": "1365195151", "code": 3300, "fclass": "muslim", "name": "Gulrez Masjid" }, "geometry": { "type": "Point", "coordinates": [ 73.1057648, 33.5628032 ] } },
{ "type": "Feature", "properties": { "osm_id": "1381312174", "code": 3300, "fclass": "muslim", "name": "Iqbal Masjid" }, "geometry": { "type": "Point", "coordinates": [ 73.0882994, 33.6098436 ] } },
{ "type": "Feature", "properties": { "osm_id": "1414238188", "code": 3300, "fclass": "muslim", "name": "Jamia Masjid Ghausia Haji Ahmed Jan" }, "geometry": { "type": "Point", "coordinates": [ 73.053832, 33.594937 ] } },
{ "type": "Feature", "properties": { "osm_id": "1420080320", "code": 3300, "fclass": "muslim", "name": "Ghusia Masjid" }, "geometry": { "type": "Point", "coordinates": [ 73.0530959, 33.5968338 ] } },
{ "type": "Feature", "properties": { "osm_id": "1495252933", "code": 3101, "fclass": "christian_anglican", "name": "St. Matthew's Church" }, "geometry": { "type": "Point", "coordinates": [ 73.3928604, 34.0717715 ] } },
{ "type": "Feature", "properties": { "osm_id": "1581372040", "code": 3300, "fclass": "muslim", "name": "Jam-e-masjid Chishtia" }, "geometry": { "type": "Point", "coordinates": [ 73.072613, 33.7131642 ] } },
{ "type": "Feature", "properties": { "osm_id": "1596068749", "code": 3300, "fclass": "muslim", "name": "college mosque" }, "geometry": { "type": "Point", "coordinates": [ 73.0665608, 33.6425931 ] } },
{ "type": "Feature", "properties": { "osm_id": "1668218548", "code": 3300, "fclass": "muslim", "name": "Jamia Masjid Khadija" }, "geometry": { "type": "Point", "coordinates": [ 73.182824, 33.6470072 ] } },
{ "type": "Feature", "properties": { "osm_id": "1669731831", "code": 3300, "fclass": "muslim", "name": "Jamia Masjid Khokhran" }, "geometry": { "type": "Point", "coordinates": [ 73.1827366, 33.6438433 ] } },
{ "type": "Feature", "properties": { "osm_id": "1669871316", "code": 3300, "fclass": "muslim", "name": "Masjid Bilal" }, "geometry": { "type": "Point", "coordinates": [ 73.1744219, 33.6467421 ] } },
{ "type": "Feature", "properties": { "osm_id": "1674214180", "code": 3300, "fclass": "muslim", "name": "Abdullah Masjid" }, "geometry": { "type": "Point", "coordinates": [ 73.1071836, 33.6294039 ] } },
{ "type": "Feature", "properties": { "osm_id": "1698023281", "code": 3301, "fclass": "muslim_sunni", "name": "Phas IV Mosque" }, "geometry": { "type": "Point", "coordinates": [ 73.1339378, 33.547426 ] } },
{ "type": "Feature", "properties": { "osm_id": "1952368051", "code": 3300, "fclass": "muslim", "name": "Hazara Colony Graveyard" }, "geometry": { "type": "Point", "coordinates": [ 73.0920272, 33.6499208 ] } },
{ "type": "Feature", "properties": { "osm_id": "1952368052", "code": 3300, "fclass": "muslim", "name": "Jamia Masjid Allah Waali Qayumabad" }, "geometry": { "type": "Point", "coordinates": [ 73.0918765, 33.6484166 ] } },
{ "type": "Feature", "properties": { "osm_id": "1954151647", "code": 3300, "fclass": "muslim", "name": "Jamia Masjid Abad" }, "geometry": { "type": "Point", "coordinates": [ 73.0784281, 33.6437914 ] } },
{ "type": "Feature", "properties": { "osm_id": "1991976401", "code": 3300, "fclass": "muslim", "name": "Jamia Masjid Syeed-e-na-Muhammad" }, "geometry": { "type": "Point", "coordinates": [ 73.0984089, 33.6451406 ] } },
{ "type": "Feature", "properties": { "osm_id": "1991976403", "code": 3300, "fclass": "muslim", "name": "Jamia Masjid Umer-e-Farooq" }, "geometry": { "type": "Point", "coordinates": [ 73.0956056, 33.6453749 ] } },
{ "type": "Feature", "properties": { "osm_id": "2000854647", "code": 3300, "fclass": "muslim", "name": "Masjid Gulshan Dadan Khan" }, "geometry": { "type": "Point", "coordinates": [ 73.0803274, 33.6521125 ] } },
{ "type": "Feature", "properties": { "osm_id": "2001249341", "code": 3300, "fclass": "muslim", "name": "Jamia Masjid Al-Sabah" }, "geometry": { "type": "Point", "coordinates": [ 73.0873532, 33.6506774 ] } },
{ "type": "Feature", "properties": { "osm_id": "2013215631", "code": 3300, "fclass": "muslim", "name": "Chudhary Grave Yard" }, "geometry": { "type": "Point", "coordinates": [ 73.0920865, 33.6510364 ] } },
{ "type": "Feature", "properties": { "osm_id": "2013215632", "code": 3300, "fclass": "muslim", "name": "Chudhary Grave Yard" }, "geometry": { "type": "Point", "coordinates": [ 73.0922359, 33.6510735 ] } },
{ "type": "Feature", "properties": { "osm_id": "2013215633", "code": 3300, "fclass": "muslim", "name": "Chudhary Grave Yard" }, "geometry": { "type": "Point", "coordinates": [ 73.0918831, 33.6510912 ] } },
{ "type": "Feature", "properties": { "osm_id": "2013215634", "code": 3300, "fclass": "muslim", "name": "Chudhary Grave Yard" }, "geometry": { "type": "Point", "coordinates": [ 73.0920485, 33.6511414 ] } },
{ "type": "Feature", "properties": { "osm_id": "2013215635", "code": 3300, "fclass": "muslim", "name": "Chudhary Grave Yard" }, "geometry": { "type": "Point", "coordinates": [ 73.0918636, 33.6512224 ] } },
{ "type": "Feature", "properties": { "osm_id": "2013215636", "code": 3300, "fclass": "muslim", "name": "Chudhary Grave Yard" }, "geometry": { "type": "Point", "coordinates": [ 73.0921731, 33.6513294 ] } },
{ "type": "Feature", "properties": { "osm_id": "2013335523", "code": 3300, "fclass": "muslim", "name": "Jamia Masjid Tajj Sher Rabani" }, "geometry": { "type": "Point", "coordinates": [ 73.0945554, 33.6514876 ] } },
{ "type": "Feature", "properties": { "osm_id": "2013335524", "code": 3300, "fclass": "muslim", "name": "Jamia Masjid Umer-e-Farooq Ghossia" }, "geometry": { "type": "Point", "coordinates": [ 73.0924583, 33.6500744 ] } },
{ "type": "Feature", "properties": { "osm_id": "2016144813", "code": 3300, "fclass": "muslim", "name": "Jamia Masjid Bilal" }, "geometry": { "type": "Point", "coordinates": [ 73.0853945, 33.6464558 ] } },
{ "type": "Feature", "properties": { "osm_id": "2016144814", "code": 3300, "fclass": "muslim", "name": "Jamia Masjid Pir Anwar Shah Gillani" }, "geometry": { "type": "Point", "coordinates": [ 73.0862712, 33.6475238 ] } },
{ "type": "Feature", "properties": { "osm_id": "2016144815", "code": 3300, "fclass": "muslim", "name": "Jamia Masjid Syed-ul-Mursaleen" }, "geometry": { "type": "Point", "coordinates": [ 73.086908, 33.6443441 ] } },
{ "type": "Feature", "properties": { "osm_id": "2016144816", "code": 3300, "fclass": "muslim", "name": "Jamia Masjid Towheed" }, "geometry": { "type": "Point", "coordinates": [ 73.088429, 33.6456752 ] } },
{ "type": "Feature", "properties": { "osm_id": "2016149253", "code": 3300, "fclass": "muslim", "name": "Jamia Masjid Qadeemi" }, "geometry": { "type": "Point", "coordinates": [ 73.0843392, 33.6448412 ] } },
{ "type": "Feature", "properties": { "osm_id": "2027815135", "code": 3300, "fclass": "muslim", "name": "Jamia Masjid Ghossia Dhok Paracha" }, "geometry": { "type": "Point", "coordinates": [ 73.0837533, 33.641554 ] } },
{ "type": "Feature", "properties": { "osm_id": "2027815138", "code": 3300, "fclass": "muslim", "name": "Jamia Masjid Usman(R.A) Bin Afan, Dhok Kashmirian" }, "geometry": { "type": "Point", "coordinates": [ 73.0849742, 33.6429732 ] } },
{ "type": "Feature", "properties": { "osm_id": "2027831385", "code": 3300, "fclass": "muslim", "name": "Jamia Khatija Zia-ul-Bnat" }, "geometry": { "type": "Point", "coordinates": [ 73.0944955, 33.6423104 ] } },
{ "type": "Feature", "properties": { "osm_id": "2027880337", "code": 3300, "fclass": "muslim", "name": "Jamia Masjid Abu Hanifa, Dhoke Kashmiarian" }, "geometry": { "type": "Point", "coordinates": [ 73.0898065, 33.64259 ] } },
{ "type": "Feature", "properties": { "osm_id": "2027914517", "code": 3300, "fclass": "muslim", "name": "Jamia Masjid Hanfia" }, "geometry": { "type": "Point", "coordinates": [ 73.0850678, 33.64062 ] } },
{ "type": "Feature", "properties": { "osm_id": "2034292981", "code": 3300, "fclass": "muslim", "name": "Jamia Masjid Younis & Madrissa Zia-ul-Quran" }, "geometry": { "type": "Point", "coordinates": [ 73.0825997, 33.6390231 ] } },
{ "type": "Feature", "properties": { "osm_id": "2034303734", "code": 3300, "fclass": "muslim", "name": "Jamia Masjid Arshi" }, "geometry": { "type": "Point", "coordinates": [ 73.076955, 33.6353792 ] } },
{ "type": "Feature", "properties": { "osm_id": "2034323564", "code": 3300, "fclass": "muslim", "name": "Jamia Masjid Chudhrian" }, "geometry": { "type": "Point", "coordinates": [ 73.0866692, 33.6390958 ] } },
{ "type": "Feature", "properties": { "osm_id": "2034323565", "code": 3300, "fclass": "muslim", "name": "Jamia Masjid Ghossia Rizwia" }, "geometry": { "type": "Point", "coordinates": [ 73.0853505, 33.6370585 ] } },
{ "type": "Feature", "properties": { "osm_id": "2034331925", "code": 3300, "fclass": "muslim", "name": "Jamia Masjid Muhammadi, Sadiqabad" }, "geometry": { "type": "Point", "coordinates": [ 73.0826939, 33.6355184 ] } },
{ "type": "Feature", "properties": { "osm_id": "2034442394", "code": 3300, "fclass": "muslim", "name": "Jamia Masjid Haji Fazal Kareem" }, "geometry": { "type": "Point", "coordinates": [ 73.0813967, 33.6332048 ] } },
{ "type": "Feature", "properties": { "osm_id": "2034442403", "code": 3300, "fclass": "muslim", "name": "Jamia Masjid Haji Muhammad Sadiq" }, "geometry": { "type": "Point", "coordinates": [ 73.0811966, 33.6367761 ] } },
{ "type": "Feature", "properties": { "osm_id": "2034442407", "code": 3300, "fclass": "muslim", "name": "Jamia Masjid New Bhangriyal, Sadiqabad" }, "geometry": { "type": "Point", "coordinates": [ 73.0832945, 33.6341754 ] } },
{ "type": "Feature", "properties": { "osm_id": "2034442411", "code": 3300, "fclass": "muslim", "name": "Jamia Masjid Syed-na-Bilal(R.A), Ghazali Road" }, "geometry": { "type": "Point", "coordinates": [ 73.0809591, 33.6348765 ] } },
{ "type": "Feature", "properties": { "osm_id": "2034442414", "code": 3300, "fclass": "muslim", "name": "Madrissa Sadiqia Anwar-ul-Quran" }, "geometry": { "type": "Point", "coordinates": [ 73.0813318, 33.6368247 ] } },
{ "type": "Feature", "properties": { "osm_id": "2089039976", "code": 3300, "fclass": "muslim", "name": "Mosque Sector A" }, "geometry": { "type": "Point", "coordinates": [ 73.1318831, 33.5359722 ] } },
{ "type": "Feature", "properties": { "osm_id": "2089492127", "code": 3300, "fclass": "muslim", "name": "Mosque Sector B" }, "geometry": { "type": "Point", "coordinates": [ 73.1417585, 33.5316517 ] } },
{ "type": "Feature", "properties": { "osm_id": "2191271152", "code": 3301, "fclass": "muslim_sunni", "name": "Syed-na-Saddiq-Akbar" }, "geometry": { "type": "Point", "coordinates": [ 73.0302501, 33.6918463 ] } },
{ "type": "Feature", "properties": { "osm_id": "2191271157", "code": 3301, "fclass": "muslim_sunni", "name": "Khulfa Rashideen" }, "geometry": { "type": "Point", "coordinates": [ 73.0262107, 33.6905206 ] } },
{ "type": "Feature", "properties": { "osm_id": "2191271162", "code": 3301, "fclass": "muslim_sunni", "name": "Rehmat-ul-Alaimeen" }, "geometry": { "type": "Point", "coordinates": [ 73.0310065, 33.6922301 ] } },
{ "type": "Feature", "properties": { "osm_id": "2191271163", "code": 3301, "fclass": "muslim_sunni", "name": "Syed-na-Ali" }, "geometry": { "type": "Point", "coordinates": [ 73.0275801, 33.6924259 ] } },
{ "type": "Feature", "properties": { "osm_id": "2346653554", "code": 3300, "fclass": "muslim", "name": "Jamia Masjid" }, "geometry": { "type": "Point", "coordinates": [ 73.1066655, 33.7218643 ] } },
{ "type": "Feature", "properties": { "osm_id": "2346874722", "code": 3300, "fclass": "muslim", "name": "Faisal Colony Mosque" }, "geometry": { "type": "Point", "coordinates": [ 73.0385029, 33.5797112 ] } },
{ "type": "Feature", "properties": { "osm_id": "2381238328", "code": 3300, "fclass": "muslim", "name": "n Garden main mosque" }, "geometry": { "type": "Point", "coordinates": [ 73.1520204, 33.5657191 ] } },
{ "type": "Feature", "properties": { "osm_id": "2382290008", "code": 3300, "fclass": "muslim", "name": "Askari-13" }, "geometry": { "type": "Point", "coordinates": [ 73.0636316, 33.5674052 ] } },
{ "type": "Feature", "properties": { "osm_id": "2382401902", "code": 3300, "fclass": "muslim", "name": "Askari 14" }, "geometry": { "type": "Point", "coordinates": [ 73.0657953, 33.5427246 ] } },
{ "type": "Feature", "properties": { "osm_id": "2382402002", "code": 3300, "fclass": "muslim", "name": "Gulshanabad" }, "geometry": { "type": "Point", "coordinates": [ 73.061373, 33.5321817 ] } },
{ "type": "Feature", "properties": { "osm_id": "2382402209", "code": 3300, "fclass": "muslim", "name": "Askari-7" }, "geometry": { "type": "Point", "coordinates": [ 73.0613308, 33.5616178 ] } },
{ "type": "Feature", "properties": { "osm_id": "2389146458", "code": 3300, "fclass": "muslim", "name": "Sector A Mosque" }, "geometry": { "type": "Point", "coordinates": [ 73.0699456, 33.5474118 ] } },
{ "type": "Feature", "properties": { "osm_id": "2395254619", "code": 3300, "fclass": "muslim", "name": "Jamia Mosque" }, "geometry": { "type": "Point", "coordinates": [ 73.0984376, 33.5406225 ] } },
{ "type": "Feature", "properties": { "osm_id": "2639614198", "code": 3300, "fclass": "muslim", "name": "Askari-13" }, "geometry": { "type": "Point", "coordinates": [ 73.06345, 33.5672416 ] } },
{ "type": "Feature", "properties": { "osm_id": "2665707281", "code": 3300, "fclass": "muslim", "name": "Jamia Masjid Gulzaar e Quaid" }, "geometry": { "type": "Point", "coordinates": [ 73.1286065, 33.5994071 ] } },
{ "type": "Feature", "properties": { "osm_id": "2665723776", "code": 3300, "fclass": "muslim", "name": "Jamia Masjid Ar Rasheed" }, "geometry": { "type": "Point", "coordinates": [ 73.1305243, 33.5963799 ] } },
{ "type": "Feature", "properties": { "osm_id": "2665768849", "code": 3300, "fclass": "muslim", "name": "Masjid-e-Quba" }, "geometry": { "type": "Point", "coordinates": [ 73.1278901, 33.5926264 ] } },
{ "type": "Feature", "properties": { "osm_id": "2774995258", "code": 3300, "fclass": "muslim", "name": "Mosque Sector C" }, "geometry": { "type": "Point", "coordinates": [ 73.1523346, 33.5299038 ] } },
{ "type": "Feature", "properties": { "osm_id": "2810677199", "code": 3300, "fclass": "muslim", "name": "Mosque Sector F" }, "geometry": { "type": "Point", "coordinates": [ 73.1610152, 33.5269845 ] } },
{ "type": "Feature", "properties": { "osm_id": "2810707292", "code": 3300, "fclass": "muslim", "name": "Mosque Sector D" }, "geometry": { "type": "Point", "coordinates": [ 73.1640596, 33.5376982 ] } },
{ "type": "Feature", "properties": { "osm_id": "3261293299", "code": 3301, "fclass": "muslim_sunni", "name": "Masjid Tooba" }, "geometry": { "type": "Point", "coordinates": [ 73.0232385, 33.6756553 ] } },
{ "type": "Feature", "properties": { "osm_id": "3438914953", "code": 3300, "fclass": "muslim", "name": "PMDC masjid" }, "geometry": { "type": "Point", "coordinates": [ 73.0452217, 33.6693228 ] } },
{ "type": "Feature", "properties": { "osm_id": "3661645519", "code": 3300, "fclass": "muslim", "name": "Madni Masjid" }, "geometry": { "type": "Point", "coordinates": [ 73.1246857, 33.6014248 ] } },
{ "type": "Feature", "properties": { "osm_id": "3776245502", "code": 3300, "fclass": "muslim", "name": "Masjid Abul Qasim" }, "geometry": { "type": "Point", "coordinates": [ 73.0390388, 33.6411572 ] } },
{ "type": "Feature", "properties": { "osm_id": "4054961915", "code": 3300, "fclass": "muslim", "name": "Falcon Complex Masjid" }, "geometry": { "type": "Point", "coordinates": [ 73.0994765, 33.6237804 ] } },
{ "type": "Feature", "properties": { "osm_id": "4092065717", "code": 3300, "fclass": "muslim", "name": "COMSATS University Mosque" }, "geometry": { "type": "Point", "coordinates": [ 73.1558874, 33.6515371 ] } },
{ "type": "Feature", "properties": { "osm_id": "4139137690", "code": 3300, "fclass": "muslim", "name": "Bari Imam Darbar" }, "geometry": { "type": "Point", "coordinates": [ 73.1106581, 33.7447116 ] } },
{ "type": "Feature", "properties": { "osm_id": "4156760892", "code": 3300, "fclass": "muslim", "name": "Syeda Amina Masjid" }, "geometry": { "type": "Point", "coordinates": [ 73.0913999, 33.6365229 ] } },
{ "type": "Feature", "properties": { "osm_id": "4156790492", "code": 3300, "fclass": "muslim", "name": "Muhammadi Masjid" }, "geometry": { "type": "Point", "coordinates": [ 73.0963166, 33.637134 ] } },
{ "type": "Feature", "properties": { "osm_id": "4205232990", "code": 3301, "fclass": "muslim_sunni", "name": "مسجد" }, "geometry": { "type": "Point", "coordinates": [ 73.4947985, 34.438988 ] } },
{ "type": "Feature", "properties": { "osm_id": "4232257372", "code": 3300, "fclass": "muslim", "name": "Bilal Masjid" }, "geometry": { "type": "Point", "coordinates": [ 73.4658246, 34.3435801 ] } },
{ "type": "Feature", "properties": { "osm_id": "4232474989", "code": 3300, "fclass": "muslim", "name": "Madni Masjid" }, "geometry": { "type": "Point", "coordinates": [ 73.0770774, 33.6600513 ] } },
{ "type": "Feature", "properties": { "osm_id": "4237008090", "code": 3300, "fclass": "muslim", "name": "Allah Wali Mosque" }, "geometry": { "type": "Point", "coordinates": [ 73.0357753, 33.5846394 ] } },
{ "type": "Feature", "properties": { "osm_id": "4273488595", "code": 3301, "fclass": "muslim_sunni", "name": "Jamia Masjid Hanfia Muslim Abad PAF" }, "geometry": { "type": "Point", "coordinates": [ 73.0788221, 33.6101209 ] } },
{ "type": "Feature", "properties": { "osm_id": "4341920390", "code": 3301, "fclass": "muslim_sunni", "name": "Al Dawa Water Rescue Masjid" }, "geometry": { "type": "Point", "coordinates": [ 73.4785876, 34.3158056 ] } },
{ "type": "Feature", "properties": { "osm_id": "4369423389", "code": 3300, "fclass": "muslim", "name": "River Gardens Jamia Masjid" }, "geometry": { "type": "Point", "coordinates": [ 73.1676923, 33.5494152 ] } },
{ "type": "Feature", "properties": { "osm_id": "4378783791", "code": 3300, "fclass": "muslim", "name": "Makki Jamia Masjid" }, "geometry": { "type": "Point", "coordinates": [ 73.0700911, 33.6372042 ] } },
{ "type": "Feature", "properties": { "osm_id": "4401164792", "code": 3300, "fclass": "muslim", "name": "Jamia Masjid" }, "geometry": { "type": "Point", "coordinates": [ 73.0725743, 33.6146247 ] } },
{ "type": "Feature", "properties": { "osm_id": "4401186889", "code": 3300, "fclass": "muslim", "name": "Masjid of Millat Colony" }, "geometry": { "type": "Point", "coordinates": [ 73.0688834, 33.6158865 ] } },
{ "type": "Feature", "properties": { "osm_id": "4414895432", "code": 3301, "fclass": "muslim_sunni", "name": "Barseen Masjid" }, "geometry": { "type": "Point", "coordinates": [ 73.2228753, 34.0484492 ] } },
{ "type": "Feature", "properties": { "osm_id": "4414895433", "code": 3300, "fclass": "muslim", "name": "bandi atai khan's masjid" }, "geometry": { "type": "Point", "coordinates": [ 73.2189003, 34.0459712 ] } },
{ "type": "Feature", "properties": { "osm_id": "4417546889", "code": 3301, "fclass": "muslim_sunni", "name": "Abdullah bin Masood Masjid" }, "geometry": { "type": "Point", "coordinates": [ 73.0316071, 33.6905453 ] } },
{ "type": "Feature", "properties": { "osm_id": "4591968889", "code": 3300, "fclass": "muslim", "name": "Masjid-e-Noor" }, "geometry": { "type": "Point", "coordinates": [ 73.0943842, 33.5824941 ] } },
{ "type": "Feature", "properties": { "osm_id": "4666195509", "code": 3300, "fclass": "muslim", "name": "HFH Mosque" }, "geometry": { "type": "Point", "coordinates": [ 73.058216, 33.6396467 ] } },
{ "type": "Feature", "properties": { "osm_id": "4674149189", "code": 3300, "fclass": "muslim", "name": "Hostel Mosque" }, "geometry": { "type": "Point", "coordinates": [ 73.1579431, 33.6307191 ] } },
{ "type": "Feature", "properties": { "osm_id": "4690487992", "code": 3301, "fclass": "muslim_sunni", "name": "Pir Jamil Ur Rehman Sahib" }, "geometry": { "type": "Point", "coordinates": [ 73.0559235, 33.6277335 ] } },
{ "type": "Feature", "properties": { "osm_id": "4691035089", "code": 3301, "fclass": "muslim_sunni", "name": "جامعہ مسجد تبلیغ لاسلام" }, "geometry": { "type": "Point", "coordinates": [ 73.1028383, 33.5883205 ] } },
{ "type": "Feature", "properties": { "osm_id": "4744124622", "code": 3301, "fclass": "muslim_sunni", "name": "Dhoke Matkaal Masjid" }, "geometry": { "type": "Point", "coordinates": [ 73.0585306, 33.6186991 ] } },
{ "type": "Feature", "properties": { "osm_id": "4744127624", "code": 3301, "fclass": "muslim_sunni", "name": "Shah Chan Chiraagh Masjid & Mazaar" }, "geometry": { "type": "Point", "coordinates": [ 73.0590799, 33.6182391 ] } }
]
}
